{
"type": "FeatureCollection",
"name": "rain",
"crs": { "type": "name", "properties": { "name": "urn:ogc:def:crs:OGC:1.3:CRS84" } },
"features": [
{ "type": "Feature", "properties": { "OBJECTID": 3, "Vido": 13.811191000299999, "Kinhdo": 109.00411, "Tentram": "Hồ Núi Một", "Phanloai": "Đo mưa tự động", "TENHIENTHI": "Hồ Núi Một", "Name": "Hồ Núi Một" }, "geometry": { "type": "Point", "coordinates": [ 109.004109999676814, 13.8111910002645, 0.0 ] } },
{ "type": "Feature", "properties": { "OBJECTID": 4, "Vido": 13.8555560002, "Kinhdo": 109.059444, "Tentram": "Nhơn Thọ", "Phanloai": "Đo mưa tự động", "TENHIENTHI": "Nhơn Thọ", "Name": "Nhơn Thọ" }, "geometry": { "type": "Point", "coordinates": [ 109.059444000040628, 13.855556000209276, 0.0 ] } },
{ "type": "Feature", "properties": { "OBJECTID": 15, "Vido": 14.003500000400001, "Kinhdo": 109.184311, "Tentram": "Hồ Mỹ Thuận", "Phanloai": "Đo mưa tự động", "TENHIENTHI": "Hồ Mỹ Thuận", "Name": "Hồ Mỹ Thuận" }, "geometry": { "type": "Point", "coordinates": [ 109.184310999952743, 14.003500000424708, 0.0 ] } },
{ "type": "Feature", "properties": { "OBJECTID": 19, "Vido": 13.9824720002, "Kinhdo": 109.061667, "Tentram": "Xã Cát Tân", "Phanloai": "Đo mưa tự động", "TENHIENTHI": "Xã Cát Tân", "Name": "Xã Cát Tân" }, "geometry": { "type": "Point", "coordinates": [ 109.06166700003206, 13.982472000182725, 0.0 ] } },
{ "type": "Feature", "properties": { "OBJECTID": 21, "Vido": 13.9944440001, "Kinhdo": 109.103889, "Tentram": "Tường Sơn", "Phanloai": "Đo mưa tự động", "TENHIENTHI": "Tường Sơn", "Name": "Tường Sơn" }, "geometry": { "type": "Point", "coordinates": [ 109.103889000077345, 13.994444000090596, 0.0 ] } },
{ "type": "Feature", "properties": { "OBJECTID": 26, "Vido": 13.763888999800001, "Kinhdo": 109.149167, "Tentram": "Khu vực 7", "Phanloai": "Đo mưa tự động", "TENHIENTHI": "Khu vực 7", "Name": "Khu vực 7" }, "geometry": { "type": "Point", "coordinates": [ 109.149166999857243, 13.763888999777578, 0.0 ] } },
{ "type": "Feature", "properties": { "OBJECTID": 27, "Vido": 13.756639, "Kinhdo": 109.2115, "Tentram": "Chi cục Thủy lợi", "Phanloai": "Đo mưa tự động", "TENHIENTHI": "Chi cục Thủy lợi", "Name": "Chi cục Thủy lợi" }, "geometry": { "type": "Point", "coordinates": [ 109.211500000124943, 13.756638999989889, 0.0 ] } },
{ "type": "Feature", "properties": { "OBJECTID": 28, "Vido": 13.7103739997, "Kinhdo": 109.123658, "Tentram": "Hồ Long Mỹ", "Phanloai": "Đo mưa tự động", "TENHIENTHI": "Hồ Long Mỹ", "Name": "Hồ Long Mỹ" }, "geometry": { "type": "Point", "coordinates": [ 109.123657999816885, 13.710373999660419, 0.0 ] } },
{ "type": "Feature", "properties": { "OBJECTID": 29, "Vido": 14.012221999699999, "Kinhdo": 108.926218, "Tentram": "Hồ Thuận Ninh", "Phanloai": "Đo mưa tự động", "TENHIENTHI": "Hồ Thuận Ninh", "Name": "Hồ Thuận Ninh" }, "geometry": { "type": "Point", "coordinates": [ 108.926217999561118, 14.01222199974552, 0.0 ] } },
{ "type": "Feature", "properties": { "OBJECTID": 30, "Vido": 13.982378000300001, "Kinhdo": 108.985319, "Tentram": "Bình Thuận", "Phanloai": "Đo mưa tự động", "TENHIENTHI": "Bình Thuận", "Name": "Bình Thuận" }, "geometry": { "type": "Point", "coordinates": [ 108.985319000071854, 13.982378000344511, 0.0 ] } },
{ "type": "Feature", "properties": { "OBJECTID": 31, "Vido": 13.9289430003, "Kinhdo": 108.793639, "Tentram": "Đập dâng Thò Đo", "Phanloai": "Đo mưa tự động", "TENHIENTHI": "Đập dâng Thò Đo", "Name": "Đập dâng Thò Đo" }, "geometry": { "type": "Point", "coordinates": [ 108.793639000139819, 13.928943000319236, 0.0 ] } },
{ "type": "Feature", "properties": { "OBJECTID": 32, "Vido": 13.8780000001, "Kinhdo": 108.866143, "Tentram": "Đập Hầm Hô", "Phanloai": "Đo mưa tự động", "TENHIENTHI": "Đập Hầm Hô", "Name": "Đập Hầm Hô" }, "geometry": { "type": "Point", "coordinates": [ 108.866142999999511, 13.878000000099973, 0.0 ] } },
{ "type": "Feature", "properties": { "OBJECTID": 33, "Vido": 14.0025000002, "Kinhdo": 108.789722, "Tentram": "Đập dâng Thượng Sơn", "Phanloai": "Đo mưa tự động", "TENHIENTHI": "Đập dâng Thượng Sơn", "Name": "Đập dâng Thượng Sơn" }, "geometry": { "type": "Point", "coordinates": [ 108.78972200027016, 14.002500000174905, 0.0 ] } },
{ "type": "Feature", "properties": { "OBJECTID": 34, "Vido": 13.633453000299999, "Kinhdo": 109.050462, "Tentram": "Hồ Quang Hiển", "Phanloai": "Đo mưa tự động", "TENHIENTHI": "Hồ Quang Hiển", "Name": "Hồ Quang Hiển" }, "geometry": { "type": "Point", "coordinates": [ 109.050462000421021, 13.633453000255827, 0.0 ] } },
{ "type": "Feature", "properties": { "OBJECTID": 35, "Vido": 13.563750000100001, "Kinhdo": 109.012194, "Tentram": "Xã Canh Hòa", "Phanloai": "Đo mưa tự động", "TENHIENTHI": "Xã Canh Hòa", "Name": "Xã Canh Hòa" }, "geometry": { "type": "Point", "coordinates": [ 109.012194000153045, 13.563750000062498, 0.0 ] } },
{ "type": "Feature", "properties": { "OBJECTID": 37, "Vido": 13.7147219996, "Kinhdo": 108.914167, "Tentram": "Làng Cát", "Phanloai": "Đo mưa tự động", "TENHIENTHI": "Làng Cát", "Name": "Làng Cát" }, "geometry": { "type": "Point", "coordinates": [ 108.914166999607403, 13.714721999620622, 0.0 ] } },
{ "type": "Feature", "properties": { "OBJECTID": 38, "Vido": 13.683888999600001, "Kinhdo": 108.927778, "Tentram": "Làng Chồm", "Phanloai": "Đo mưa tự động", "TENHIENTHI": "Làng Chồm", "Name": "Làng Chồm" }, "geometry": { "type": "Point", "coordinates": [ 108.927777999555076, 13.683888999577732, 0.0 ] } },
{ "type": "Feature", "properties": { "OBJECTID": 39, "Vido": 13.5824999996, "Kinhdo": 108.967222, "Tentram": "Hà Văn Trên", "Phanloai": "Đo mưa tự động", "TENHIENTHI": "Hà Văn Trên", "Name": "Hà Văn Trên" }, "geometry": { "type": "Point", "coordinates": [ 108.967222000095262, 13.582499999575361, 0.0 ] } },
{ "type": "Feature", "properties": { "OBJECTID": 40, "Vido": 13.737673000399999, "Kinhdo": 109.060554, "Tentram": "Hồ Đá Mài", "Phanloai": "Đo mưa tự động", "TENHIENTHI": "Hồ Đá Mài", "Name": "Hồ Đá Mài" }, "geometry": { "type": "Point", "coordinates": [ 109.060553999967169, 13.737673000408677, 0.0 ] } },
{ "type": "Feature", "properties": { "OBJECTID": 41, "Vido": 14.038622999599999, "Kinhdo": 108.827657, "Tentram": "Hồ Hà Nhe", "Phanloai": "Đo mưa tự động", "TENHIENTHI": "Hồ Hà Nhe", "Name": "Hồ Hà Nhe" }, "geometry": { "type": "Point", "coordinates": [ 108.827656999570934, 14.038622999551819, 0.0 ] } },
{ "type": "Feature", "properties": { "OBJECTID": 42, "Vido": 14.0999169996, "Kinhdo": 108.809557, "Tentram": "Hồ Hòn Lập", "Phanloai": "Đo mưa tự động", "TENHIENTHI": "Hồ Hòn Lập", "Name": "Hồ Hòn Lập" }, "geometry": { "type": "Point", "coordinates": [ 108.809557000355369, 14.099916999569928, 0.0 ] } },
{ "type": "Feature", "properties": { "OBJECTID": 43, "Vido": 14.3650950002, "Kinhdo": 108.694488, "Tentram": "Hồ A - thủy điện Vĩnh Sơn - Sông Hinh", "Phanloai": "Đo mưa tự động", "TENHIENTHI": "Hồ A - thủy điện Vĩnh Sơn - Sông Hinh", "Name": "Hồ A - thủy điện Vĩnh Sơn - Sông Hinh" }, "geometry": { "type": "Point", "coordinates": [ 108.694487999921307, 14.365095000234135, 0.0 ] } },
{ "type": "Feature", "properties": { "OBJECTID": 49, "Vido": 14.1560746208, "Kinhdo": 108.772085625, "Tentram": "Hồ Định Bình", "Phanloai": "Đo mưa tự động", "TENHIENTHI": "Hồ Định Bình", "Name": "Hồ Định Bình" }, "geometry": { "type": "Point", "coordinates": [ 108.772085625237253, 14.15607462083895, 0.0 ] } },
{ "type": "Feature", "properties": { "OBJECTID": 51, "Vido": 14.3811478486, "Kinhdo": 108.616034148, "Tentram": "Hồ B - Thủy điện Vĩnh Sơn - Sông Hinh", "Phanloai": "Đo mưa tự động", "TENHIENTHI": "Hồ B - Thủy điện Vĩnh Sơn - Sông Hinh", "Name": "Hồ B - Thủy điện Vĩnh Sơn - Sông Hinh" }, "geometry": { "type": "Point", "coordinates": [ 108.616034147691849, 14.381147848556395, 0.0 ] } },
{ "type": "Feature", "properties": { "OBJECTID": 55, "Vido": 13.874454078, "Kinhdo": 109.12871927899999, "Tentram": "Đập Thạnh Hòa", "Phanloai": "Đo mưa tự động", "TENHIENTHI": null, "Name": "Đập Thạnh Hòa" }, "geometry": { "type": "Point", "coordinates": [ 109.125588349687447, 13.874973318996089, 0.0 ] } },
{ "type": "Feature", "properties": { "OBJECTID": 0, "Vido": 13.9371867179, "Kinhdo": 108.873348757, "Tentram": "Đập Văn Phong", "Phanloai": "Đo mưa tự động", "TENHIENTHI": "Đập Văn Phong", "Name": "Đập Văn Phong" }, "geometry": { "type": "Point", "coordinates": [ 108.873348756575894, 13.937186717891644, 0.0 ] } },
{ "type": "Feature", "properties": { "OBJECTID": 0, "Vido": 14.360686444500001, "Kinhdo": 108.719183114, "Tentram": "Thủy điện Vĩnh Sơn 5", "Phanloai": "Đo mưa tự động", "TENHIENTHI": "Thủy điện Vĩnh Sơn 5", "Name": "Thủy điện Vĩnh Sơn 5" }, "geometry": { "type": "Point", "coordinates": [ 108.719183113791999, 14.360686444532867, 0.0 ] } },
{ "type": "Feature", "properties": { "OBJECTID": 0, "Vido": 14.307448384000001, "Kinhdo": 108.6869457, "Tentram": "Hồ Trà Xom", "Phanloai": "Đo mưa tự động", "TENHIENTHI": "Hồ Trà Xom", "Name": "Hồ Trà Xom" }, "geometry": { "type": "Point", "coordinates": [ 108.686945700192808, 14.307448383988408, 0.0 ] } },
{ "type": "Feature", "properties": { "OBJECTID": 0, "Vido": 14.533718460399999, "Kinhdo": 108.72762475499999, "Tentram": "UBND xã An Toàn", "Phanloai": "Đo mưa tự động", "TENHIENTHI": "UBND xã An Toàn", "Name": "UBND xã An Toàn" }, "geometry": { "type": "Point", "coordinates": [ 108.727624755242559, 14.533718460402774, 0.0 ] } },
{ "type": "Feature", "properties": { "OBJECTID": 0, "Vido": 14.334922345600001, "Kinhdo": 108.753285953, "Tentram": "Vĩnh Kim", "Phanloai": "Đo mưa tự động", "TENHIENTHI": "Vĩnh Kim", "Name": "Vĩnh Kim" }, "geometry": { "type": "Point", "coordinates": [ 108.753285953315753, 14.334922345587108, 0.0 ] } },
{ "type": "Feature", "properties": { "OBJECTID": 0, "Vido": 14.3624991089, "Kinhdo": 108.569490437, "Tentram": "Sơn Lang", "Phanloai": "Đo mưa tự động", "TENHIENTHI": "Sơn Lang", "Name": "Sơn Lang" }, "geometry": { "type": "Point", "coordinates": [ 108.569490436572906, 14.362499108914166, 0.0 ] } },
{ "type": "Feature", "properties": { "OBJECTID": 0, "Vido": 13.8316578815, "Kinhdo": 109.182309158, "Tentram": "Đập An Thuận", "Phanloai": "Đo mưa tự động", "TENHIENTHI": null, "Name": "Đập An Thuận" }, "geometry": { "type": "Point", "coordinates": [ 109.18313011510773, 13.834990686109862, 0.0 ] } },
{ "type": "Feature", "properties": { "OBJECTID": 0, "Vido": 13.950903581, "Kinhdo": 108.797648951, "Tentram": "Hồ Lỗ Môn", "Phanloai": "Đo mưa tự động", "TENHIENTHI": "Hồ Lỗ Môn", "Name": "Hồ Lỗ Môn" }, "geometry": { "type": "Point", "coordinates": [ 108.797648951000042, 13.950903581000034, 0.0 ] } }
]
}
